City_ID,City,Lat,Lng,Max Temp,Humidity,Cloudiness,Wind Speed,Country,Date
0,olonkinbyen,70.9221,-8.7187,-3.68,63,99,3.29,SJ,1737436721
1,charlotte,35.2271,-80.8431,-4.02,40,0,3.6,US,1737436667
2,kudahuvadhoo,2.6708,72.8944,27.55,75,63,4.14,MV,1737436723
3,san luis de la loma,17.2706,-100.8939,23.57,81,8,1.94,MX,1737436724
4,nevel'sk,46.6733,141.8633,-5.33,72,4,0.94,RU,1737436725
5,adamstown,-25.066,-130.1015,24.69,75,9,5.24,PN,1737436726
6,ete,7.05,7.45,21.32,92,21,1.45,NG,1737436728
7,utrik,11.2278,169.8474,26.7,83,26,9.16,MH,1737436729
8,waitangi,-43.9535,-176.5597,16.57,74,38,1.79,NZ,1737436730
9,blackmans bay,-43.0167,147.3167,22.51,74,74,0.45,AU,1737436731
10,mejit,10.2753,170.8646,26.71,81,45,8.58,MH,1737436732
11,nar'yan-mar,67.6713,53.087,-25.67,96,100,2.76,RU,1737436733
12,revda,56.801,59.9303,-15.19,91,100,4.95,RU,1737436734
13,anadyr,64.75,177.4833,-28.72,75,0,5.0,RU,1737436736
14,isafjordur,66.0755,-23.124,-1.28,90,100,5.73,IS,1737436737
15,grytviken,-54.2811,-36.5092,1.04,82,75,2.87,GS,1737436738
16,lebu,-37.6167,-73.65,16.03,93,99,3.45,CL,1737436673
17,bredasdorp,-34.5322,20.0403,19.59,81,54,8.12,ZA,1737436741
18,port-aux-francais,-49.35,70.2167,7.37,97,100,12.76,TF,1737436461
19,bilibino,68.0546,166.4372,-33.84,100,100,0.58,RU,1737436743
20,mili,6.0815,171.735,26.55,86,100,9.5,MH,1737436744
21,marsh harbour,26.5412,-77.0636,21.54,89,100,8.39,BS,1737436746
22,palasa,18.7667,84.4167,26.92,32,6,2.33,IN,1737436747
23,nemuro,43.3236,145.575,-0.72,65,53,6.74,JP,1737436748
24,ushuaia,-54.8,-68.3,5.78,93,82,2.74,AR,1737436727
25,weno,7.4515,151.8468,30.97,74,100,3.6,FM,1737436751
26,bethel,41.3712,-73.414,-10.24,72,25,0.89,US,1737436752
27,hlybokaye,55.1382,27.6879,-0.35,93,100,3.67,BY,1737436753
28,jamestown,42.097,-79.2353,-16.1,71,100,7.2,US,1737436619
29,carnarvon,-24.8667,113.6333,33.19,52,76,12.76,AU,1737436521
30,atafu village,-8.5421,-172.5159,28.56,76,49,6.89,TK,1737436756
31,nuuk,64.1835,-51.7216,0.34,93,100,9.26,GL,1737436757
32,gornopravdinsk,60.05,69.9,-10.49,96,100,2.8,RU,1737436758
33,sovetskaya gavan',48.9723,140.2878,-7.0,78,34,1.28,RU,1737436759
34,novyy urgal,51.0736,132.5642,-16.12,82,44,0.41,RU,1737436760
35,holualoa,19.6228,-155.9522,20.46,88,96,0.89,US,1737436762
36,envira,-7.3,-70.2167,22.61,89,99,1.16,BR,1737436764
37,sitka,57.0531,-135.33,3.94,87,100,1.54,US,1737436765
38,chegdomyn,51.1167,133.0167,-14.22,79,30,0.59,RU,1737436766
39,usinsk,65.9939,57.5281,-22.98,81,100,5.54,RU,1737436767
40,santyoku,37.4406,129.1708,7.12,54,13,2.25,KR,1737436768
41,minas de marcona,-15.2119,-75.1103,16.31,79,74,3.4,PE,1737436769
42,santiago de cao,-7.9589,-79.2392,18.07,88,93,3.6,PE,1737436771
43,tiksi,71.6872,128.8694,-31.1,96,100,3.4,RU,1737436772
44,bhigvan,18.3167,74.7667,25.19,24,1,1.29,IN,1737436773
45,tosontsengel,48.7567,98.2839,-15.81,91,93,0.89,MN,1737436774
46,tazovsky,67.4667,78.7,-36.44,96,100,4.16,RU,1737436775
47,chela,34.069,104.4619,4.38,60,88,1.74,CN,1737436776
48,atlantic beach,30.3344,-81.3987,7.23,75,100,4.12,US,1737436635
49,fujin,47.26,132.0322,-11.99,84,100,1.04,CN,1737436778
50,diu,20.7141,70.9822,26.61,41,1,2.55,IN,1737436779
51,ust-nera,64.5667,143.2,-30.9,98,93,2.22,RU,1737436780
52,guane,22.2025,-84.0875,20.5,92,100,2.12,CU,1737436781
53,puerto natales,-51.7236,-72.4875,9.8,89,100,0.4,CL,1737436782
54,stanley,54.868,-1.6985,2.01,97,100,2.06,GB,1737436783
55,luderitz,-26.6481,15.1594,17.52,79,0,5.82,NA,1737436785
56,fale old settlement,-9.3852,-171.2468,28.76,75,67,7.01,TK,1737436786
57,isangel,-19.55,169.2667,29.82,69,100,3.5,VU,1737436787
58,bobrovskiy,56.6732,60.9807,-10.91,73,75,6.0,RU,1737436788
59,tura,25.5198,90.2201,23.95,41,0,1.5,IN,1737436789
60,uliastay,47.7417,96.8444,-9.89,72,4,2.05,MN,1737436790
61,klyuchi,52.2667,79.1667,-0.68,84,96,8.02,RU,1737436791
62,wailua homesteads,22.0669,-159.378,22.44,90,75,7.2,US,1737436792
63,kingston,17.997,-76.7936,25.53,69,20,3.09,JM,1737436480
64,vorkuta,67.5,64.0,-27.19,86,100,3.31,RU,1737436794
65,georgetown,5.4112,100.3354,28.97,70,20,4.12,MY,1737436766
66,ketchikan,55.3422,-131.6461,3.88,99,100,1.54,US,1737436799
67,petauke,-14.2426,31.3253,18.7,98,100,1.3,ZM,1737436503
68,pombas,17.1503,-25.0201,15.16,70,80,3.97,CV,1737436801
69,valle de la pascua,9.2155,-66.0073,23.63,77,3,2.98,VE,1737436802
70,westport,41.1415,-73.3579,-7.6,61,0,1.79,US,1737436735
71,khorixas,-20.3667,14.9667,22.4,29,100,0.99,NA,1737436804
72,ta`u,-14.2336,-169.5144,28.23,77,35,5.74,AS,1737436806
73,inhambane,-23.865,35.3833,26.99,94,75,2.57,MZ,1737436807
74,saipan,15.1355,145.701,31.39,80,40,5.66,MP,1737436809
75,dakhla,23.6848,-15.958,16.37,80,0,2.95,EH,1737436810
76,edinburgh of the seven seas,-37.0676,-12.3116,18.3,95,100,7.19,SH,1737436811
77,papatowai,-46.5619,169.4708,17.32,61,54,4.45,NZ,1737436812
78,ivdel',60.6911,60.4206,-23.58,88,96,4.56,RU,1737436699
79,hawaiian paradise park,19.5933,-154.9731,21.73,89,100,4.12,US,1737436814
80,albany,42.6001,-73.9662,-15.11,74,6,3.03,US,1737436815
81,taghazout,30.5426,-9.7112,18.15,37,1,7.66,MA,1737436816
82,kimbe,-5.5502,150.1429,29.55,73,98,1.15,PG,1737436817
83,lautoka,-17.6167,177.4667,30.92,70,75,4.63,FJ,1737436818
84,balancan,17.8,-91.5333,20.63,91,28,2.0,MX,1737436820
85,avarua,-21.2078,-159.775,25.03,100,75,0.51,CK,1737436821
86,sisimiut,66.9395,-53.6735,-5.48,87,100,3.09,GL,1737436822
87,sharkan,57.2989,53.8712,-9.35,86,99,8.67,RU,1737436823
88,iqaluit,63.7506,-68.5145,-19.06,70,40,1.54,CA,1737436825
89,la mira,18.035,-102.3266,21.31,85,67,1.95,MX,1737436826
90,goiatuba,-18.0125,-49.3547,19.23,88,0,1.95,BR,1737436827
91,invercargill,-46.4,168.35,19.45,45,45,4.47,NZ,1737436619
92,sarnia,42.9787,-82.4041,-14.93,75,0,4.12,CA,1737436790
93,taoudenni,22.6783,-3.9836,12.42,30,0,4.6,ML,1737436831
94,mirnyy,62.5353,113.9611,-10.98,89,100,4.85,RU,1737436832
95,altamira,-3.2033,-52.2064,21.84,98,77,0.76,BR,1737436834
96,nikolayevsk-on-amure,53.1406,140.73,-11.15,89,19,2.18,RU,1737436835
97,afaahiti,-17.75,-149.2833,26.19,73,94,5.99,PF,1737436836
98,port blair,11.6667,92.75,27.49,66,27,5.02,IN,1737436837
99,punta arenas,-53.15,-70.9167,11.06,76,75,2.57,CL,1737436679
100,centerville,39.6284,-84.1594,-15.08,74,0,2.57,US,1737436839
101,chittarkonda,18.1167,82.0833,28.05,16,2,1.1,IN,1737436840
102,west island,-12.1568,96.8225,29.99,62,40,6.17,CC,1737436841
103,cataguases,-21.3892,-42.6967,24.07,86,70,1.18,BR,1737436836
104,huehuetan,15.0167,-92.3667,25.23,75,91,1.41,MX,1737436844
105,susuman,62.7833,148.1667,-39.32,99,93,0.55,RU,1737436845
106,tromso,69.6496,18.957,-10.99,79,0,2.06,NO,1737436846
107,toamasina,-18.1667,49.3833,26.0,89,75,0.0,MG,1737436847
108,soure,-0.7167,-48.5233,24.78,88,100,2.74,BR,1737436765
109,sinabang,2.4803,96.3801,27.69,79,99,1.91,ID,1737436849
110,vila franca do campo,37.7167,-25.4333,15.23,86,54,11.21,PT,1737436850
111,puerto ayora,-0.7393,-90.3518,24.09,82,12,3.7,EC,1737436851
112,talnakh,69.4865,88.3972,-42.15,95,49,1.04,RU,1737436852
113,ribeira grande,38.5167,-28.7,14.87,83,86,13.86,PT,1737436853
114,ozalp,38.6548,43.993,-21.18,89,53,1.07,TR,1737436854
115,hithadhoo,-0.6,73.0833,28.19,75,100,6.58,MV,1737436855
116,gardendale,33.6601,-86.8128,-6.55,53,0,2.57,US,1737436857
117,kodiak,57.79,-152.4072,3.73,93,100,6.17,US,1737436859
118,soc trang,9.6033,105.98,30.04,48,86,2.72,VN,1737436860
119,divo,5.8397,-5.36,21.67,98,30,1.13,CI,1737436861
120,thompson,55.7435,-97.8558,-29.91,76,40,1.54,CA,1737436862
121,walvis bay,-22.9575,14.5053,17.53,77,100,4.12,NA,1737436863
122,roussillon,45.373,4.8073,1.34,95,98,1.29,FR,1737436864
123,enewetak,11.3474,162.3373,27.21,80,63,8.68,MH,1737436865
124,malango,-2.9627,119.9001,26.4,75,100,0.68,ID,1737436866
125,sao joao da barra,-21.6403,-41.0511,24.86,92,99,4.42,BR,1737436867
126,sao vicente,-23.9631,-46.3919,29.43,26,76,2.74,BR,1737436868
127,schweizer-reneke,-27.1887,25.3293,22.73,40,32,3.41,ZA,1737436870
128,college,64.8569,-147.8028,-4.5,92,75,0.0,US,1737436573
129,banda aceh,5.5577,95.3222,29.59,62,11,3.98,ID,1737436872
130,broken hill,-31.95,141.4333,38.98,13,6,6.42,AU,1737436732
131,lerwick,60.1545,-1.1494,7.41,91,100,4.08,GB,1737436640
132,homosassa springs,28.8036,-82.5759,6.72,68,100,3.6,US,1737436875
133,arteche,12.2645,125.4048,27.52,84,100,3.57,PH,1737436876
134,tazacorte,28.629,-17.9293,18.54,98,100,2.57,ES,1737436877
135,westerland,54.9079,8.3033,4.01,94,100,7.72,DE,1737436878
136,port lincoln,-34.7333,135.8667,21.67,60,74,8.02,AU,1737436880
137,udachny,66.4167,112.4,-28.35,100,94,1.29,RU,1737436881
138,boa vista,2.8197,-60.6733,25.99,61,0,4.63,BR,1737436687
139,bantogon,6.5333,124.0333,28.46,79,99,3.06,PH,1737436883
140,sabha,27.0377,14.4283,8.82,58,0,4.1,LY,1737436884
141,klaksvik,62.2266,-6.589,6.74,81,59,1.27,FO,1737436885
142,kapuskasing,49.4169,-82.4331,-30.95,75,0,3.09,CA,1737436886
143,siwa oasis,29.2041,25.5195,15.42,60,76,2.56,EG,1737436887
144,al jawf,29.5,38.75,8.35,62,23,1.73,SA,1737436888
145,hamilton,39.1834,-84.5333,-12.89,65,0,2.57,US,1737436828
146,qalat,32.1058,66.9083,3.63,73,12,4.57,AF,1737436891
147,tralee,52.2704,-9.7026,6.39,92,93,1.79,IE,1737436892
148,ayaviri,-14.8864,-70.5889,6.68,88,98,1.42,PE,1737436893
149,haiku-pauwela,20.9219,-156.3051,22.25,79,40,7.6,US,1737436754
150,hede,33.7681,120.2517,14.43,23,0,3.0,CN,1737436895
151,qaqortoq,60.7167,-46.0333,-1.15,66,100,8.33,GL,1737436896
152,northam,51.0333,-4.2167,3.94,86,98,2.75,GB,1737436897
153,namdrik,5.5994,168.1028,27.32,82,92,9.22,MH,1737436898
154,tyniste nad orlici,50.1514,16.0777,-1.61,89,100,2.37,CZ,1737436899
155,east london,-33.0153,27.9116,20.52,83,100,1.03,ZA,1737436900
156,hadibu,12.65,54.0333,23.86,70,92,3.89,YE,1737436901
157,sur,22.5667,59.5289,21.76,56,1,2.3,OM,1737436902
158,longyearbyen,78.2186,15.6401,-16.09,72,75,5.66,SJ,1737436903
159,mount pearl,47.5166,-52.7813,0.64,83,100,14.92,CA,1737436905
160,bahjoi,28.4,78.6167,20.09,30,1,5.45,IN,1737436906
161,gizo,-8.103,156.8419,29.73,70,72,2.22,SB,1737436907
162,xilin hot,43.9667,116.0333,-9.97,68,3,1.37,CN,1737436908
163,tarawa,1.419,172.984,29.05,74,40,5.66,KI,1737436909
164,tshikapa,-6.4167,20.8,20.65,97,100,0.36,CD,1737436910
165,tolanaro,-25.0319,46.9987,30.04,66,20,5.14,MG,1737436911
166,porangatu,-13.4408,-49.1486,21.37,94,38,0.4,BR,1737436912
167,luanda,-8.8368,13.2343,26.0,78,75,2.06,AO,1737436781
168,ilulissat,69.2167,-51.1,0.01,59,100,6.17,GL,1737436915
169,keflavik,64.0049,-22.5624,0.24,86,0,4.12,IS,1737436916
170,thinadhoo,0.5333,72.9333,28.0,75,75,4.55,MV,1737436917
171,al fashn,28.8243,30.8995,14.28,49,100,2.32,EG,1737436918
172,huambo,-12.7761,15.7392,15.89,94,100,3.09,AO,1737436919
173,taulaga,-11.0553,-171.0883,28.69,75,13,5.86,AS,1737436920
174,cabedelo,-6.9811,-34.8339,25.37,80,18,2.76,BR,1737436678
175,cartagena,10.3997,-75.5144,24.79,88,0,4.92,CO,1737436922
176,port hedland,-20.3167,118.5667,33.03,62,100,5.66,AU,1737436923
177,alice springs,-23.7,133.8833,41.75,8,0,6.69,AU,1737436757
178,remire-montjoly,4.9167,-52.2667,25.02,88,75,1.03,GF,1737436926
179,touros,-5.1989,-35.4608,25.79,77,0,2.52,BR,1737436927
180,laojunmiao,39.8333,97.7333,-0.72,25,86,1.69,CN,1737436928
181,vilyuchinsk,52.9306,158.4028,-3.85,80,2,4.02,RU,1737436929
182,barcelos,41.5388,-8.6151,12.39,95,99,2.84,PT,1737436930
183,pryamitsyno,51.6561,35.9314,-0.7,89,14,1.46,RU,1737436931
184,khandyga,62.6667,135.6,-19.31,98,100,0.42,RU,1737436932
185,karratha,-20.7377,116.8463,31.69,64,100,5.49,AU,1737436934
186,port elizabeth,-33.918,25.5701,20.17,89,100,5.14,ZA,1737436936
187,akureyri,65.6835,-18.0878,-0.04,80,75,0.51,IS,1737436937
188,tanumah,27.1,44.1333,10.16,37,3,4.27,SA,1737436938
189,lata,40.1629,-8.3327,14.16,98,100,1.51,PT,1737436939
190,mahibadhoo,3.7833,72.9667,27.69,75,50,4.51,MV,1737436940
191,phnom penh,11.5625,104.916,29.95,39,20,3.09,KH,1737436931
192,itaituba,-4.2761,-55.9836,22.77,97,100,0.6,BR,1737436943
193,callao,-12.0667,-77.15,22.07,83,0,4.12,PE,1737436883
194,whitehorse,60.7161,-135.0538,1.43,55,75,2.06,CA,1737436946
195,iskateley,67.6803,53.1512,-26.0,97,99,2.71,RU,1737436947
196,puerto deseado,-47.7503,-65.8938,12.89,88,100,8.23,AR,1737436948
197,ar rutbah,33.0381,40.2848,4.22,58,0,1.78,IQ,1737436949
198,belomorsk,64.5232,34.7668,-12.11,88,7,3.45,RU,1737436950
199,petropavlovsk-kamchatsky,53.0452,158.6483,-4.67,36,20,5.0,RU,1737436951
200,plettenberg bay,-34.0527,23.3716,19.42,84,100,6.01,ZA,1737436952
201,port mathurin,-19.6833,63.4167,26.32,71,11,7.4,MU,1737436953
202,uturoa,-16.7333,-151.4333,27.79,74,100,6.56,PF,1737436954
203,kabanjahe,3.1001,98.4908,26.03,56,64,1.5,ID,1737436955
204,dunedin,-45.8742,170.5036,16.68,63,100,1.73,NZ,1737436956
205,baikonur,45.6167,63.3167,0.52,96,100,9.0,KZ,1737436957
206,villa dolores,-31.9459,-65.1896,19.67,38,1,2.32,AR,1737436958
207,labrador city,52.9463,-66.9114,-28.79,63,75,5.66,CA,1737436960
208,pacasmayo,-7.4006,-79.5714,20.31,81,89,4.45,PE,1737436961
209,sassandra,4.95,-6.0833,25.06,88,60,2.03,CI,1737436962
210,yellowknife,62.456,-114.3525,-17.55,93,100,2.57,CA,1737436936
211,whangarei,-35.7317,174.3239,23.21,74,100,2.11,NZ,1737436964
212,naze,28.3667,129.4833,16.51,57,1,7.12,JP,1737436836
213,fomboni,-12.28,43.7425,28.03,77,83,6.4,KM,1737436966
214,lihue,21.9789,-159.3672,22.77,73,75,7.2,US,1737436967
215,chibougamau,49.9168,-74.3659,-37.21,74,0,1.03,CA,1737436968
216,shimoda,34.6667,138.95,10.74,70,99,4.66,JP,1737436969
217,rio preto da eva,-2.6994,-59.6997,22.47,92,100,0.88,BR,1737436971
218,kununurra,-15.7667,128.7333,37.99,44,82,1.54,AU,1737436869
219,los yebenes,39.5816,-3.8706,7.1,96,100,4.0,ES,1737436973
220,constitucion,-35.3333,-72.4167,14.89,95,73,3.2,CL,1737436687
221,al khafji,28.4391,48.4913,14.42,41,0,3.67,SA,1737436975
222,gadzhiyevo,69.2551,33.3362,-5.12,76,100,4.82,RU,1737436977
223,jurbarkas,55.0778,22.7664,1.56,86,100,3.47,LT,1737436978
224,santa sylvina,-27.8326,-61.1375,20.59,59,0,2.01,AR,1737436979
225,kitcharao,9.455,125.5731,27.89,85,100,4.03,PH,1737436980
226,hotan,37.0997,79.9269,0.55,32,0,1.62,CN,1737436981
227,broome,42.2506,-75.833,-13.52,68,0,5.14,US,1737436982
228,sorong,-0.8833,131.25,29.37,73,97,6.26,ID,1737436983
229,cabo san lucas,22.8909,-109.9124,18.75,64,46,4.07,MX,1737436985
230,macau,22.2006,113.5461,18.85,55,20,2.06,MO,1737436986
231,angren,41.0167,70.1436,4.31,67,99,2.8,UZ,1737436987
232,hermanus,-34.4187,19.2345,19.89,78,4,8.56,ZA,1737436988
233,ulaangom,49.9811,92.0667,-22.28,98,100,1.48,MN,1737436989
234,bria,6.5423,21.9863,23.04,64,90,0.6,CF,1737436991
235,port alfred,-33.5906,26.891,20.1,87,100,3.13,ZA,1737436993
236,zhaqsy,51.9083,67.3133,-4.71,94,100,10.03,KZ,1737436816
237,rio grande,-32.035,-52.0986,20.14,83,29,2.21,BR,1737436995
238,massakory,12.996,15.7293,21.95,19,1,3.97,TD,1737436996
239,brigantine,39.4101,-74.3646,-8.32,62,0,3.6,US,1737436997
240,kudymkar,59.0173,54.656,-14.72,82,100,5.05,RU,1737436999
241,mugia,43.1041,-9.2179,14.95,93,100,11.12,ES,1737437000
242,danilov,58.1908,40.1717,-11.38,85,7,4.54,RU,1737437001
243,mogocha,53.7333,119.7667,-13.4,83,67,0.97,RU,1737437002
244,severo-yeniseyskiy,60.3725,93.0408,-4.81,89,99,5.41,RU,1737437003
245,chonchi,-42.6128,-73.8092,8.62,97,82,0.95,CL,1737437004
246,tamanrasset,22.785,5.5228,8.95,25,0,2.06,DZ,1737437005
247,constantia,44.1833,28.65,-0.62,71,100,2.31,RO,1737436839
248,guangyuan,32.442,105.823,13.93,52,91,0.96,CN,1737436842
249,inirida,3.8653,-67.9239,26.12,52,53,0.45,CO,1737437008
250,songjiang,31.036,121.2146,13.98,28,56,3.53,CN,1737436975
251,nguigmi,14.2495,13.1092,21.25,23,0,4.48,NE,1737437010
252,port saint john's,-31.6229,29.5448,21.31,91,100,3.32,ZA,1737437014
253,andratx,39.5755,2.4202,13.58,95,100,4.99,ES,1737437015
254,ballingry,56.1639,-3.3284,5.79,95,100,1.34,GB,1737437016
255,vernon,50.2581,-119.2691,-4.2,65,100,3.09,CA,1737437017
256,zeya,53.75,127.2667,-14.18,86,12,1.17,RU,1737437018
257,san pedro,14.35,121.0167,31.57,70,40,4.63,PH,1737437022
258,sofiyivka,48.0493,33.8746,-0.98,91,13,2.79,UA,1737437023
259,colonia,50.9333,6.95,-1.14,91,100,1.54,DE,1737436990
260,ola,59.5833,151.2833,-21.84,86,86,1.53,RU,1737437026
261,necochea,-38.5473,-58.7368,17.01,61,99,6.71,AR,1737437027
262,haimen,23.1935,116.6142,17.41,51,0,8.31,CN,1737437028
263,riosucio,5.4216,-75.7032,14.24,94,0,0.64,CO,1737437030
264,bac lieu,9.285,105.7244,27.51,61,96,5.42,VN,1737437031
265,cadale,2.7603,46.3222,25.1,77,46,7.02,SO,1737437032
266,papao,-17.75,-149.55,27.82,72,91,6.0,PF,1737437033
267,phai sali,15.5976,100.6585,29.7,28,100,2.57,TH,1737437034
268,cockburn town,21.4612,-71.1419,25.19,84,14,8.77,TC,1737437035
269,masterton,-40.9597,175.6575,21.71,56,18,5.17,NZ,1737437037
270,dowlatabad,32.7998,51.6955,-0.18,74,20,4.12,IR,1737437038
271,puqi,29.7167,113.8833,21.53,17,21,0.95,CN,1737437039
272,sofia,42.6975,23.3242,0.1,90,100,1.03,BG,1737437041
273,itoman,26.1247,127.6694,21.21,52,20,7.72,JP,1737437042
274,fort bragg,35.139,-79.006,-2.88,46,0,2.57,US,1737437043
275,pisco,-13.7,-76.2167,20.03,83,0,2.06,PE,1737437044
276,letterkenny,54.95,-7.7333,5.31,85,93,1.97,IE,1737437045
277,hollidaysburg,40.4273,-78.3889,-13.96,65,0,5.14,US,1737437046
278,arraial do cabo,-22.9661,-42.0278,24.81,93,100,6.97,BR,1737437047
279,palikir - national government center,6.9248,158.1611,31.47,70,100,5.14,FM,1737437048
280,port hueneme,34.1478,-119.1951,14.83,19,0,6.17,US,1737437049
281,ancud,-41.8697,-73.8203,12.12,88,85,1.15,CL,1737437051
282,las vegas,36.175,-115.1372,4.51,18,0,6.17,US,1737436242
283,puerto colombia,10.9878,-74.9547,27.05,80,0,11.49,CO,1737437053
284,cuamba,-14.8031,36.5372,22.24,94,100,1.07,MZ,1737437054
285,wad az zaki,14.4619,32.2065,21.6,23,4,5.11,SD,1737437055
286,flying fish cove,-10.4217,105.6791,26.82,94,100,5.14,CX,1737437056
287,newman,37.3138,-121.0208,7.53,48,4,1.36,US,1737437057
288,margaret river,-33.95,115.0667,34.16,33,100,1.57,AU,1737437058
289,arcos,-20.2819,-45.5394,20.57,87,100,0.7,BR,1737437059
290,yuzhno-kurilsk,44.0306,145.8556,-1.01,63,69,7.46,RU,1737437060
291,fortaleza,-3.7227,-38.5247,26.07,89,40,1.54,BR,1737437011
292,polyarnyy,69.1989,33.4478,-5.22,76,100,5.2,RU,1737437062
293,st. john's,47.5649,-52.7093,1.1,81,100,14.92,CA,1737436791
294,whitby,54.4877,-0.615,6.6,90,100,0.89,GB,1737437064
295,santa clara de valladares,19.6382,-102.4904,15.35,57,85,2.28,MX,1737437066
296,greymouth,-42.4667,171.2,20.61,65,42,4.05,NZ,1737437067
297,namibe,-15.1961,12.1522,20.56,78,100,1.53,AO,1737437068
298,saint-philippe,-21.3585,55.7679,26.8,75,100,5.68,RE,1737437069
299,fortuna,40.5982,-124.1573,5.51,100,0,4.63,US,1737437070
300,crane,31.3974,-102.3501,-2.13,29,12,7.67,US,1737437071
301,gamba,-2.65,10.0,23.88,92,100,1.51,GA,1737437073
302,houlton,46.1262,-67.8403,-18.77,68,0,3.09,US,1737437074
303,tinajo,29.0788,-13.7081,17.49,77,20,6.17,ES,1737437075
304,ust'-kulom,61.6864,53.6902,-22.85,95,99,3.17,RU,1737437076
305,san luis,-33.295,-66.3356,20.75,29,20,3.89,AR,1737436190
306,badger,64.8,-147.5333,-4.55,93,75,0.0,US,1737437078
307,mount isa,-20.7333,139.5,37.87,25,20,4.12,AU,1737437079
308,dinguiraye,11.3,-10.7167,19.51,21,1,1.04,GN,1737437080
309,hasaki,35.7333,140.8333,9.53,86,100,10.03,JP,1737437081
310,vorgashor,67.5833,63.95,-27.74,86,100,3.34,RU,1737437082
311,okhotsk,59.3833,143.3,-21.88,79,1,4.18,RU,1737437083
312,saint-pierre,-21.3393,55.4781,29.82,66,0,3.6,RE,1737437084
313,maxixe,-23.8597,35.3472,26.9,94,75,2.57,MZ,1737437086
314,al bayda,32.7627,21.7551,10.4,96,99,2.41,LY,1737437058
315,piranshahr,36.701,45.1413,-5.8,73,3,1.56,IR,1737437088
316,bikenibeu village,1.3673,173.1241,28.98,74,40,5.66,KI,1737437089
317,kruisfontein,-34.0033,24.7314,18.41,77,100,4.62,ZA,1737437090
318,lazaro cardenas,17.9583,-102.2,22.47,84,74,1.68,MX,1737436852
319,santiago papasquiaro,25.046,-105.4208,6.48,48,11,3.06,MX,1737437092
320,mbanza-ngungu,-5.25,14.8667,19.88,99,100,2.06,CD,1737437093
321,alta,69.9689,23.2717,-15.41,78,0,3.09,NO,1737437094
322,saldanha,-33.0117,17.9442,17.03,71,0,3.18,ZA,1737437095
323,tevriz,57.509,72.4042,-3.53,94,100,4.42,RU,1737437096
324,oriximina,-1.7656,-55.8661,26.07,74,100,1.8,BR,1737437097
325,north bend,43.4065,-124.2243,3.95,81,0,4.12,US,1737437098
326,placido de castro,-10.3353,-67.1856,21.78,99,100,0.65,BR,1737437100
327,uchiza,-8.4592,-76.4633,21.2,96,100,0.86,PE,1737437101
328,tikhvin,59.6451,33.5294,-10.65,86,60,0.98,RU,1737437102
329,puerto baquerizo moreno,-0.9,-89.6,23.97,81,6,4.47,EC,1737436913
330,bereeda,11.8704,51.0579,23.42,69,69,2.52,SO,1737437104
331,jwaneng,-24.6004,24.7303,22.86,55,9,3.66,BW,1737437105
332,christchurch,-43.5333,172.6333,20.53,68,40,6.69,NZ,1737436540
333,caldwell,43.6629,-116.6874,-5.47,62,2,2.57,US,1737437107
334,kingscliff,-28.2667,153.5667,28.3,65,83,5.66,AU,1737437108
335,codrington,-38.2667,141.9667,21.2,66,50,6.76,AU,1737437109
336,andkhoy,36.9529,65.1238,9.37,52,100,0.76,AF,1737437110
337,ilebo,-4.3167,20.5833,20.27,95,100,0.31,CD,1737437112
338,whakatane,-37.9585,176.9854,19.73,95,100,0.89,NZ,1737437113
339,machico,32.7,-16.7667,18.89,83,40,13.38,PT,1737437114
340,lorengau,-2.0226,147.2712,29.59,70,80,4.34,PG,1737437115
341,torrington,41.8007,-73.1212,-12.5,85,35,2.62,US,1737437116
342,songling,31.1933,120.7176,15.05,25,77,3.0,CN,1737437117
343,omutinskiy,56.4745,67.6709,-5.11,95,100,5.15,RU,1737436895
344,aasiaat,68.7098,-52.8699,-7.31,96,100,3.38,GL,1737437119
345,kattivakkam,13.2167,80.3167,27.28,64,90,4.69,IN,1737437120
346,fort st. john,56.2499,-120.8529,-3.06,59,75,12.86,CA,1737437121
347,sao tome,0.3365,6.7273,25.89,81,99,0.77,ST,1737436887
348,lezignan-corbieres,43.1976,2.7614,8.9,92,80,1.79,FR,1737437124
349,santa cruz,-17.8,-63.1667,21.7,94,75,1.54,BO,1737437125
350,bintulu,3.1667,113.0333,29.23,83,40,2.24,MY,1737437126
351,kalinkavichy,52.1323,29.3257,0.56,93,93,2.91,BY,1737437128
352,san patricio,28.017,-97.5169,2.97,46,100,10.02,US,1737437129
353,puerto escondido,15.85,-97.0667,24.57,78,4,2.61,MX,1737437130
354,floro,61.5996,5.0328,3.98,87,75,2.06,NO,1737437131
355,alibag,18.6411,72.8792,26.9,37,1,1.69,IN,1737437132
356,lompoc,34.6391,-120.4579,7.61,86,0,3.09,US,1737437133
357,olinda,-8.0089,-34.8553,26.85,83,40,1.54,BR,1737437037
358,nouadhibou,20.931,-17.0347,15.99,88,3,6.69,MR,1737437135
359,xining,36.6167,101.7667,0.26,31,66,1.37,CN,1737437138
360,valbo,60.65,17.0333,0.03,100,100,1.79,SE,1737437139
361,obock,12.25,43.0833,18.23,76,11,5.19,DJ,1737437140
362,zhezqazghan,47.7833,67.7667,-1.68,93,100,14.0,KZ,1737437141
363,navojoa,27.1,-109.4333,12.61,43,68,1.45,MX,1737437142
364,alpine,32.835,-116.7664,11.39,19,62,0.45,US,1737437143
365,saynshand,44.8824,110.1163,-5.63,45,0,1.01,MN,1737437144
366,aripuana,-9.1667,-60.6333,21.63,99,100,1.63,BR,1737437145
367,nelson bay,-32.7167,152.15,22.51,63,99,5.1,AU,1737437146
368,villa emilio carranza,19.9667,-96.6,14.46,84,90,2.72,MX,1737437149
369,misliyah,17.4599,42.5572,24.23,77,0,0.36,SA,1737437150
370,rongelap,11.1635,166.8941,26.8,84,82,8.71,MH,1737437151
371,chumphon,10.3333,98.8333,31.19,39,64,3.54,TH,1737437152
372,alotau,-10.3069,150.4462,31.35,61,100,2.82,PG,1737437153
373,pervomaysk,48.0443,30.8507,-0.7,93,34,2.97,UA,1737437154
374,rexburg,43.826,-111.7897,-22.01,71,0,2.06,US,1737437155
375,comandante fontana,-25.3345,-59.6821,20.6,52,17,1.91,AR,1737437156
376,las tablas,7.7667,-80.2833,24.54,99,0,4.35,PA,1737437157
377,sao jose da coroa grande,-8.8978,-35.1478,25.53,84,9,2.29,BR,1737437158
378,timber pines,28.4703,-82.6032,7.3,66,100,3.6,US,1737437159
379,labytnangi,66.6572,66.4183,-24.62,82,100,8.05,RU,1737437160
380,palangkaraya,-2.2,113.8333,26.17,90,99,1.78,ID,1737437161
381,prado,-17.3411,-39.2208,25.07,90,36,4.68,BR,1737437163
382,loiza,18.4313,-65.8802,26.19,81,20,3.09,PR,1737437164
383,cobija,-11.0267,-68.7692,21.08,99,100,0.97,BO,1737437165
384,fetsund,59.929,11.1625,-2.67,99,100,1.87,NO,1737437166
385,yaren,-0.5472,166.916,27.79,77,81,7.15,NR,1737437167
386,smithers,54.7804,-127.1743,-7.82,93,100,2.06,CA,1737437168
387,jining,35.405,116.5814,13.1,21,27,2.43,CN,1737437169
388,severnoye,56.3491,78.3619,-2.06,95,100,6.54,RU,1737437170
389,sao felix do xingu,-6.6447,-51.995,20.73,99,100,0.23,BR,1737437171
390,kargasok,59.0556,80.8572,-1.23,90,100,6.02,RU,1737437173
391,guerrero negro,27.9769,-114.0611,14.23,57,100,4.06,MX,1737437174
392,forked river,39.8398,-74.1901,-8.9,65,0,4.95,US,1737437175
393,red hill,33.9996,-79.2581,-1.62,57,0,4.76,US,1737437176
394,robore,-18.3333,-59.75,21.58,96,100,1.33,BO,1737437177
395,farah,32.5,62.5,8.16,50,37,1.43,AF,1737437178
396,kenai,60.5544,-151.2583,-0.48,99,100,4.12,US,1737437179
397,ulety,51.3572,112.4849,-10.71,77,40,1.63,RU,1737437180
398,vila velha,-20.3297,-40.2925,26.08,90,20,5.14,BR,1737437181
399,laguna,38.421,-121.4238,6.7,72,3,0.48,US,1737437183
400,camalu,30.85,-116.0667,12.04,33,75,3.59,MX,1737437184
401,brisas de zicatela,15.8369,-97.0419,24.39,78,4,2.53,MX,1737437185
402,suntar,62.1444,117.6319,-8.61,90,100,4.63,RU,1737437186
403,bireun,5.203,96.7009,28.55,66,9,3.53,ID,1737437187
404,luganville,-15.5333,167.1667,30.25,71,89,3.64,VU,1737437188
405,horodenka,48.6727,25.5016,1.66,73,100,2.63,UA,1737437189
406,jaisalmer,26.9147,70.9181,19.02,18,0,4.17,IN,1737437190
407,leava,-14.3,-178.1667,28.87,74,94,3.81,WF,1737437192
408,buala,-8.145,159.5921,29.57,72,78,2.14,SB,1737437194
409,hirara,24.8,125.2833,20.92,60,40,6.69,JP,1737437195
410,dryden,49.7833,-92.7503,-30.84,69,100,5.14,CA,1737437196
411,leiston,52.2061,1.5776,3.27,96,89,3.58,GB,1737437197
412,norfolk,42.1668,-71.2495,-10.3,76,48,1.59,US,1737437198
413,yanchep,-31.55,115.6833,32.94,59,100,2.06,AU,1737437199
414,kamthi,21.2333,79.2,24.19,33,0,2.54,IN,1737437200
415,talara,-4.5772,-81.2719,21.66,80,21,5.95,PE,1737437049
416,merta,26.65,74.0333,21.64,37,0,2.77,IN,1737437203
417,braganca paulista,-22.94,-46.5556,19.45,90,62,1.96,BR,1737436926
418,fort mcmurray,56.7268,-111.381,-5.23,79,100,4.63,CA,1737437012
419,cidreira,-30.1811,-50.2056,21.6,92,14,3.64,BR,1737437207
420,mount gambier,-37.8333,140.7667,23.27,54,80,5.63,AU,1737436983
421,alness,57.696,-4.2551,4.87,92,96,1.68,GB,1737437209
422,khark,29.2614,50.3306,14.01,82,0,0.0,IR,1737437210
423,new norfolk,-42.7826,147.0587,23.17,32,71,1.3,AU,1737437211
424,ma'rib,15.4591,45.3253,17.25,26,0,0.77,YE,1737437212
425,wad medani,14.4012,33.5199,22.11,56,1,4.81,SD,1737437214
426,llorente,11.4119,125.5458,28.19,75,100,4.09,PH,1737437215
427,natal,-5.795,-35.2094,25.12,88,20,1.54,BR,1737436647
428,ushirombo,-3.4919,31.9639,17.22,94,78,1.25,TZ,1737437217
429,davydovka,51.1578,39.4292,-2.81,87,9,1.89,RU,1737437218
430,afzalpur,17.2,76.35,25.39,21,11,2.27,IN,1737437219
431,tsiombe,-25.3,45.4833,29.29,59,0,1.87,MG,1737437220
432,kirensk,57.7853,108.1119,-6.12,93,100,4.88,RU,1737437221
433,mantyharju,61.4167,26.8833,-8.07,70,100,2.91,FI,1737437222
434,lashio,22.9333,97.75,24.18,33,0,1.14,MM,1737437223
435,tangalle,6.024,80.7911,28.97,67,26,1.36,LK,1737437224
436,thunder bay,48.4001,-89.3168,-28.01,52,75,5.66,CA,1737437216
437,kidal,18.4411,1.4078,15.12,14,0,4.84,ML,1737437227
438,san vicente de canete,-13.0751,-76.3835,19.88,87,40,1.76,PE,1737437228
439,praia da vitoria,38.7333,-27.0667,15.14,77,75,15.47,PT,1737437229
440,larreynaga,12.6769,-86.5719,23.76,66,9,0.98,NI,1737437230
441,sudogda,55.9539,40.8629,-8.78,79,13,4.47,RU,1737437231
442,viqueque,-8.8673,126.3658,29.05,72,100,2.56,TL,1737437232
443,bengkulu,-3.8004,102.2655,27.5,80,81,4.35,ID,1737437233
444,muncar,-8.4333,114.3333,25.52,85,100,0.88,ID,1737437234
445,nabire,-3.3667,135.4833,26.11,90,96,1.64,ID,1737437235
446,pago pago,-14.2781,-170.7025,28.55,79,40,5.66,AS,1737437236
447,arvayheer,46.2639,102.775,-7.09,63,7,0.49,MN,1737437237
448,haparanda,65.8355,24.1368,-20.97,86,100,2.46,SE,1737437240
449,san antonio,29.4241,-98.4936,-0.63,63,100,7.72,US,1737436617
450,nyurba,63.2842,118.3319,-9.9,87,100,4.53,RU,1737437121
451,brookings,44.3114,-96.7984,-24.97,72,0,3.6,US,1737437154
452,zarghun shahr,32.8473,68.4457,-1.82,86,73,2.32,AF,1737437245
453,yerofey pavlovich,53.9667,121.9667,-14.25,88,100,1.15,RU,1737437246
454,cosala,24.4125,-106.6908,13.49,69,1,1.1,MX,1737437247
455,nazyvayevsk,55.5698,71.3529,-4.31,94,100,7.53,RU,1737437248
456,nieuw amsterdam,5.8833,-55.0833,23.55,90,31,4.32,SR,1737437249
457,bandarbeyla,9.4942,50.8122,23.57,75,35,6.94,SO,1737437250
458,church hill,36.5223,-82.7135,-10.81,79,23,1.31,US,1737437148
459,portland,45.5234,-122.6762,3.52,67,75,2.68,US,1737437253
460,muynoq,43.7683,59.0214,1.53,82,98,8.97,UZ,1737437254
461,ayr,55.4627,-4.6339,6.16,95,75,3.09,GB,1737437255
462,morehead city,34.7229,-76.726,-1.0,66,0,5.14,US,1737437256
463,tokoroa,-38.2333,175.8667,16.69,78,100,1.62,NZ,1737437257
464,kurkino,53.4257,38.6582,-3.73,80,17,3.37,RU,1737437258
465,suya,9.4667,3.1833,23.48,39,47,1.72,NG,1737437260
466,tarija,-21.5355,-64.7296,14.42,86,62,0.06,BO,1737437261
467,merizo village,13.2658,144.6691,29.99,84,79,6.74,GU,1737437262
468,seydi,39.4816,62.9137,6.35,60,99,2.18,TM,1737437263
469,al miqdadiyah,33.9786,44.9369,8.03,66,2,4.14,IQ,1737437264
470,el calafate,-50.3408,-72.2768,11.41,80,100,0.99,AR,1737437266
471,podporozh'ye,60.9112,34.1706,-11.67,90,33,1.0,RU,1737437267
472,valparaiso,-33.0393,-71.6273,11.8,93,0,2.06,CL,1737437072
473,stara lubovna,49.2986,20.6862,-0.08,81,100,2.39,SK,1737437269
474,saint-francois,46.4154,3.9054,-1.31,93,31,1.03,FR,1737437270
475,urucui,-7.2294,-44.5561,21.89,94,99,0.55,BR,1737437272
476,diapaga,12.0708,1.7889,21.66,14,2,3.83,BF,1737437273
477,hailar,49.2,119.7,-13.53,92,94,1.58,CN,1737437274
478,san pedro pochutla,15.7333,-96.4667,23.73,79,0,1.62,MX,1737437275
479,lae,-6.7221,146.9847,29.84,62,62,2.08,PG,1737437276
480,tocopilla,-22.092,-70.1979,20.35,79,100,0.53,CL,1737437277
481,vadso,70.0744,29.7487,-9.91,79,76,5.14,NO,1737437278
482,batticaloa,7.7102,81.6924,26.6,81,64,3.48,LK,1737437279
483,caxito,-8.5785,13.6643,23.53,90,100,1.52,AO,1737437280
484,pacific grove,36.6177,-121.9166,10.91,74,5,2.24,US,1737437059
485,parakou,9.3372,2.6303,23.69,56,44,1.75,BJ,1737437282
486,vieira de leiria,39.8695,-8.9324,15.06,94,40,2.57,PT,1737437284
487,anavyssos,37.7333,23.95,12.05,72,86,2.45,GR,1737437285
488,nova sintra,14.8667,-24.7167,22.39,74,72,6.83,CV,1737437287
489,antsiranana,-12.2787,49.2917,28.42,69,20,4.12,MG,1737437288
490,mata-utu,-13.2816,-176.1745,28.5,75,77,4.27,WF,1737437289
491,jutai,-5.1833,-68.9,22.8,92,49,0.93,BR,1737437290
492,menongue,-14.6585,17.691,17.46,94,100,2.11,AO,1737437291
493,bardai,11.65,7.2333,20.23,23,5,3.37,NG,1737437292
494,hilo,19.7297,-155.09,21.85,85,100,4.12,US,1737437103
495,howrah,22.5892,88.3103,24.0,53,0,3.6,IN,1737437294
496,sake,-1.5736,29.045,16.78,90,91,0.27,CD,1737437295
497,alofi,-19.0595,-169.9187,28.94,79,75,3.09,NU,1737437296
498,chui,-33.6971,-53.4616,19.72,85,100,6.25,UY,1737437297
499,port isabel,26.0734,-97.2086,8.37,94,100,8.13,US,1737437101
500,korba,22.35,82.6833,26.46,27,0,3.25,IN,1737437299
501,ardestan,33.3761,52.3694,3.83,71,100,4.11,IR,1737437301
502,altai,46.3722,96.2583,-8.79,70,3,0.94,MN,1737437302
503,tandlianwala,31.0333,73.1333,18.75,26,61,2.63,PK,1737437303
504,manokwari,-0.8667,134.0833,24.49,92,100,1.34,ID,1737437304
505,astorga,-23.2325,-51.6656,20.52,90,88,1.97,BR,1737437178
506,pariaman,-0.619,100.12,29.03,83,100,0.52,ID,1737437306
507,cabrobo,-8.5142,-39.31,24.26,78,25,0.73,BR,1737437307
508,san antonio de pale,-1.4014,5.6325,26.37,76,91,2.5,GQ,1737437308
509,acarau,-2.8856,-40.12,24.47,86,84,1.56,BR,1737437024
510,beaconsfield,45.4334,-73.8659,-15.02,79,100,2.57,CA,1737437310
511,margherita,27.2833,95.6833,24.52,35,0,1.45,IN,1737437313
512,neyriz,29.1988,54.3278,3.68,44,0,0.98,IR,1737437314
513,shahr-e babak,30.1165,55.1186,1.69,41,0,2.28,IR,1737437315
514,dudinka,69.4058,86.1778,-43.05,99,53,3.23,RU,1737437316
515,ksar el kebir,35.0017,-5.9053,10.73,75,99,2.97,MA,1737437317
516,tangerhutte,52.4333,11.8,-1.16,60,76,1.61,DE,1737437318
517,toliara,-23.35,43.6667,26.36,70,58,3.74,MG,1737437319
518,kasempa,-13.4584,25.8338,17.48,98,100,2.29,ZM,1737437320
519,bangolo,7.0069,-7.475,18.28,81,21,0.95,CI,1737437322
520,selfoss,63.9331,-20.9971,-3.91,77,2,5.28,IS,1737437324
521,coracora,-15.0333,-73.7833,10.97,76,100,0.85,PE,1737437325
522,az zulfi,26.2995,44.8154,11.06,33,2,3.2,SA,1737437326
523,al qadarif,14.0349,35.3834,20.44,73,49,4.93,SD,1737437327
524,kismayo,-0.3582,42.5454,26.12,74,51,7.13,SO,1737437328
525,mount airy,36.4993,-80.6073,-8.71,58,0,2.57,US,1737437329
526,hammerfest,70.6634,23.6821,-6.75,68,75,1.54,NO,1737437330
527,luis correia,-2.8792,-41.6669,24.02,89,71,2.51,BR,1737437331
528,grand falls-windsor,48.9332,-55.6649,-2.5,75,75,2.68,CA,1737437332
529,kokkola,63.8385,23.1307,-6.71,67,0,3.6,FI,1737437333
530,kampene,-3.6,26.6667,19.37,92,100,0.24,CD,1737437334
531,aykhal,66.0,111.5,-26.82,100,85,2.56,RU,1737437335
532,forster,-32.1667,152.5167,25.21,69,100,3.06,AU,1737437336
533,yarmouth,41.7057,-70.2286,-6.1,67,0,6.26,US,1737437338
534,contamana,-7.3333,-75.0167,27.66,54,89,1.19,PE,1737437339
535,coquimbo,-29.9533,-71.3436,15.85,82,0,2.06,CL,1737437071
536,gariadhar,21.5333,71.5833,25.1,41,0,3.73,IN,1737437341
537,uzgen,40.7699,73.3007,1.04,73,64,2.51,KG,1737437342
538,viedma,-40.8135,-62.9967,28.03,15,100,10.98,AR,1737437258
539,berezovyy,51.6667,135.7,-9.28,83,9,1.3,RU,1737437344
540,shanwei,22.782,115.3475,20.0,39,12,5.92,CN,1737437345
541,kourou,5.1552,-52.6478,24.27,81,12,2.79,GF,1737437346
542,sal rei,16.1833,-22.9167,21.3,74,51,6.59,CV,1737437347
543,margate,51.3813,1.3862,2.61,94,70,3.59,GB,1737437348
544,zapolyarnyy,69.4154,30.8136,-12.04,97,99,2.75,RU,1737437350
545,gulbarga,17.3333,76.8333,25.31,21,7,2.55,IN,1737437352
546,kailua-kona,19.6406,-155.9956,22.53,86,96,0.45,US,1737437139
547,oyama,36.3,139.8,8.31,72,98,3.49,JP,1737437354
548,urengoy,65.9667,78.3667,-29.38,87,100,6.69,RU,1737437355
549,huarmey,-10.0681,-78.1522,20.85,84,100,3.1,PE,1737437357
550,eyl,7.9803,49.8164,24.51,67,28,7.73,SO,1737437358
551,cherdyn',60.403,56.4787,-20.98,92,100,3.87,RU,1737437359
552,uruzgan,32.8333,66.0,3.12,54,9,3.0,AF,1737437360
553,xique xique,-10.8217,-42.7311,23.44,83,100,0.97,BR,1737437361
554,pathein,16.7833,94.7333,30.22,37,97,1.7,MM,1737437362
555,magadan,59.5667,150.8,-21.99,90,92,0.94,RU,1737437363
556,kerikeri,-35.2268,173.9474,22.4,75,100,2.38,NZ,1737437364
557,avra valley,32.4379,-111.3154,9.92,14,75,6.69,US,1737437365
558,sabang,5.8933,95.3214,27.55,76,33,8.49,ID,1737437366
559,atar,20.5169,-13.0499,16.44,18,60,3.23,MR,1737437369
560,alvorada,-12.48,-49.1247,21.84,95,55,0.74,BR,1737437370
561,guanica,17.9716,-66.908,24.92,81,0,3.4,PR,1737437371
562,salto del guaira,-24.0625,-54.3069,22.11,94,100,1.99,PY,1737437372
